City_ID,City,Country,Max Temp,Lat,Lng,Hotel Name
2,Cape Town,ZA,70.21,-33.9258,18.4232,Southern Sun Waterfront Cape Town
3,Ginda,IN,37.72,30.6945,78.4932,Anand Ganga
4,Hilo,US,76.8,19.7297,-155.09,Hilo Hawaiian Hotel
5,Ushuaia,AR,44.26,-54.8,-68.3,Albatross Hotel
6,Mataura,NZ,56.73,-46.1927,168.8643,Southland Organic Farmstay
7,Busselton,AU,77.09,-33.65,115.3333,Observatory Guest House
8,Bireun,ID,77.22,5.203,96.7009,Koss Dhanny
9,Rikitea,PF,76.98,-23.1203,-134.9692,People ThankYou
10,Korla,CN,23.14,41.7597,86.1469,Gulisitan Hotel
11,Kahului,US,84.22,20.8947,-156.47,Maui Seaside Hotel
13,Punta Arenas,CL,50.11,-53.15,-70.9167,Hotel Hain
14,Tezu,IN,50.05,27.9167,96.1667,Circuit House
15,Nikolskoye,RU,26.87,59.7035,30.7861,Hotel in Otradnoe
17,Kapaa,US,80.11,22.0752,-159.319,Sheraton Kauai Coconut Beach Resort
19,Atuona,PF,77.77,-9.8,-139.0333,Villa Enata
21,Ferrandina,IT,38.98,40.5012,16.4547,Hotel Diamante
22,Butaritari,KI,82.56,3.0707,172.7902,Isles Sunset Lodge
23,Tasiilaq,GL,17.76,65.6145,-37.6368,The Red House
24,Ketchikan,US,39.67,55.3422,-131.6461,Snow's Cove Lodge
25,San Cristobal,VE,71.78,7.7669,-72.225,Posada Villaven C.A.
26,Farafangana,MG,74.75,-22.8167,47.8333,Miarina
27,Niquero,CU,71.44,20.0431,-77.5828,Islazul Niquero
29,Victoria,HK,56.17,22.2855,114.1577,Mini Hotel Central
30,Saint-Philippe,RE,76.55,-21.3585,55.7679,p'ti case d'éléna
32,Avarua,CK,84.25,-21.2078,-159.775,Little Polynesian Resort
33,Lodja,CD,71.47,-3.4833,23.4333,
34,Sfantu Gheorghe,RO,20.93,45.8667,25.7833,Hotel Park
35,Goundam,ML,69.84,16.4145,-3.6708,
36,Esperance,AU,77.54,-33.8667,121.9,Hospitality Esperance
38,Port Blair,IN,77.04,11.6667,92.75,"Welcomhotel By ITC Hotels, Bay Island, Port Blair"
39,Shingu,JP,45.59,33.7333,135.9833,Shingu UI Hotel
40,Homer,US,25.09,59.6425,-151.5483,Beluga Lake Lodge
41,Lasa,IT,47.66,46.6166,10.7002,Hotel Goldene Rose Superior
42,The Valley,AI,77.09,18.217,-63.0578,Anguilla Great House Beach Resort
43,Zarya,RU,23.49,55.7553,38.0958,Areal
45,Mar Del Plata,AR,73.87,-38.0023,-57.5575,Gran Hotel Mar del Plata
46,Umm Lajj,SA,61.41,25.0213,37.2685,Moon light Furnished Units
47,Ashtian,IR,25.05,34.5217,50.0019,خوابگاه
48,Ponta Do Sol,PT,63.23,32.6667,-17.1,Calheta Beach - All-inclusive
49,Natal,BR,75.85,-5.795,-35.2094,Villa Park Hotel | Natal
51,Severo-Kurilsk,RU,24.85,50.6789,156.125,Kak Doma
52,Havoysund,NO,25.68,70.9963,24.6622,Arctic View Glamping & Restaurant
54,Bethel,US,18.3,41.3712,-73.414,Courtyard by Marriott Danbury
55,Berberati,CF,67.23,4.2612,15.7922,MAIRIE DE BERBERATI
56,Souillac,MU,79.18,-20.5167,57.5167,Shanti Maurice Resort & Spa
57,Port Townsend,US,48.34,48.117,-122.7605,Aladdin Inn
59,North Platte,US,48.38,41.1239,-100.7654,"Holiday Inn Express & Suites North Platte, an IHG Hotel"
60,Vuktyl,RU,13.15,63.8567,57.3094,Mini-Hotel Lokomotiv
61,Bambous Virieux,MU,79.05,-20.3428,57.7575,Laguna Beach Hotel & Spa
62,Harper,LR,78.8,4.375,-7.7169,Screensaver
63,Teknaf,BD,55.6,20.8624,92.3058,Forestry Guesthouse
64,Yaqui,MX,68.56,27.3667,-110.1667,
65,Aleksandrovka,UA,27.73,46.8383,32.7612,
66,Carnarvon,AU,78.87,-24.8667,113.6333,Hospitality Carnarvon
67,Port Elizabeth,ZA,61.11,-33.918,25.5701,The Paxton Hotel
68,Tadine,NC,83.53,-21.55,167.8833,Hotel Nengone Village
69,Constitucion,CL,58.39,-35.3333,-72.4167,Hotel Playa El Cable
71,Dunedin,NZ,58.03,-45.8742,170.5036,Scenic Hotel Southern Cross
72,Torbay,CA,39.76,47.6666,-52.7314,Comfort Hotel St. John's
73,New Norfolk,AU,76.66,-42.7826,147.0587,The Shingles Riverside Cottages
74,Fortuna,US,54.09,40.5982,-124.1573,Bear River Casino Resort
75,Quebo,GW,70.47,11.3333,-14.9333,
76,Burgeo,CA,42.91,47.6167,-57.6152,Gillett's Motel
77,Miandoab,IR,15.71,36.9694,46.1027,موبایل جمهموری
78,Paragominas,BR,70.99,-2.9667,-47.4833,INOVA
79,Kamenka,RU,31.75,51.3223,42.7678,
80,Tuatapere,NZ,61.56,-46.1333,167.6833,Ron and Tony's Bed & Breakfast
81,Puerto Suarez,BO,77.83,-18.95,-57.8,Hotel casa real
82,Acapulco,MX,80.42,16.8634,-99.8901,HS Hotsson Smart Acapulco
83,Puerto Ayora,EC,73.96,-0.7393,-90.3518,Finch Bay Galapagos Hotel
84,Kribi,CM,79.81,2.95,9.9167,Hôtel Tara Plage
85,Nanakuli,US,80.11,21.3906,-158.1547,Marriott's Ko Olina Beach Club
86,Almeirim,BR,72.3,-1.5233,-52.5817,Ricácio Hotel
87,Timra,SE,31.68,62.487,17.3257,Scandic Sundsvall Nord
88,Bredasdorp,ZA,65.28,-34.5322,20.0403,Bredasdorp Country Manor
89,Hithadhoo,MV,80.76,-0.6,73.0833,Scoop Guest House
90,Bengkulu,ID,77.97,-3.8004,102.2655,Grage Hotel Bengkulu
91,Las Palmas,ES,59.79,28.4204,-14.0131,Casa Rural Sunset Ampuyenta
92,Vestmannaeyjar,IS,41.0,63.4427,-20.2734,Glamping & Camping
94,Arlit,NE,61.45,18.7369,7.3853,Case de Passage De la Prefecture
95,Beaverlodge,CA,34.95,55.2166,-119.4361,Side Trax Inn
97,Hobart,AU,77.02,-42.8794,147.3294,Mantra on Collins Hobart
99,Avera,US,35.71,33.194,-82.5271,April darren
101,Port Alfred,ZA,68.45,-33.5906,26.891,The Halyards Hotel
103,Opportunity,US,30.11,47.6499,-117.2399,Comfort Inn & Suites
104,Cidreira,BR,71.58,-30.1811,-50.2056,Residencial Mar de Abelhas
105,Vao,NC,79.72,-22.6667,167.4833,Hotel Kou-Bugny
106,Arraial Do Cabo,BR,74.71,-22.9661,-42.0278,Pousada Porto Praia
107,Vaini,TO,81.77,-21.2,-175.2,Little Italy Hotel
111,Port-Gentil,GA,80.96,-0.7193,8.7815,Fengshui Residence
112,Zhangjiakou,CN,19.11,40.81,114.8794,Shell Zhangjiakou City Qiaodong District Ginza Hotel
113,Husavik,IS,33.71,66.0449,-17.3389,Bjarnabúð
114,Okhotsk,RU,14.72,59.3833,143.3,Prozhivaniye V Okhotske
115,Flinders,AU,86.81,-34.5833,150.8552,Shellharbour Resort & Conference Centre
117,Saldanha,ZA,60.85,-33.0117,17.9442,Blue Bay Lodge
118,Castro,BR,59.86,-24.7911,-50.0119,CHACARA BAILLY
119,Hermanus,ZA,65.8,-34.4187,19.2345,Misty Waves Boutique Hotel
120,Diourbel,SN,68.79,14.6628,-16.3925,ISFAR maison Blanche
122,Casablanca,MA,62.33,33.5928,-7.6192,فندق البيت المغربي كازبلانكا
123,Olafsvik,IS,37.56,64.8945,-23.7142,The Freezer Hostel & Culture Centre
124,Le Vauclin,MQ,73.85,14.5452,-60.8388,Hôtel Cap Macabou
125,Farah,AF,46.29,32.5,62.5,
126,Caravelas,BR,78.58,-17.7125,-39.2481,Pousada dos Navegantes
127,Kaitangata,NZ,56.28,-46.2817,169.8464,Hotel South Otago
129,Jieshi,CN,52.95,22.8134,115.8257,Yuehai Hotel
130,Geraldton,AU,84.61,-28.7667,114.6,Broadwater Mariner Resort
131,Hami,CN,19.99,42.8,93.45,Post And Telecommunication Hotel
132,Ribeira Grande,PT,58.68,38.5167,-28.7,Hotel do Canal | Horta - Faial
133,Mount Isa,AU,82.17,-20.7333,139.5,ibis Styles Mt Isa Verona
136,Puerto Baquerizo Moreno,EC,74.34,-0.9,-89.6,Hotel los Algarrobos
139,Te Anau,NZ,57.42,-45.4167,167.7167,Kingsgate Hotel Te Anau
140,Lompoc,US,64.78,34.6391,-120.4579,"Holiday Inn Express Lompoc, an IHG Hotel"
141,Monrovia,LR,78.94,6.3005,-10.7969,Sunset Inn
143,Comodoro Rivadavia,AR,69.66,-45.8667,-67.5,Austral Hotel
145,Chuy,UY,65.79,-33.6971,-53.4616,Nuevo Hotel Plaza
146,Santa Cruz,BO,80.06,-17.8,-63.1667,Aviador Hotel Boutique
147,Saurimo,AO,62.8,-9.6608,20.3916,Hotel Kawissa Saurimo
148,Garissa,KE,75.54,-0.4536,39.6401,Sharif Plaza Hotel
151,Marzuq,YE,58.69,14.4,46.4667,
152,Ancud,CL,56.73,-41.8697,-73.8203,Hotel Arena Gruesa
153,Mahajanga,MG,77.02,-15.7167,46.3167,Restaurant Greedy Coco Lodge Majunga
154,Rawson,AR,79.29,-43.3002,-65.1023,Hosteria Sampedro
156,Georgetown,MY,81.9,5.4112,100.3354,Cititel Penang
157,Namibe,AO,70.57,-15.1961,12.1522,Hotel Chik Chik Namibe
158,Shimoda,JP,46.76,34.6667,138.95,Shimoda Tokyu Hotel
159,Westport,US,20.32,41.1415,-73.3579,Hilton Garden Inn Norwalk
160,Paciran,ID,81.09,-6.8767,112.3761,Tanjung Kodok Beach Resort
161,Ossora,RU,23.14,59.2353,163.0719,
162,Manta,EC,78.58,-0.95,-80.7333,Balandra Hotel
163,Fenoarivo,MG,62.67,-18.933,47.4354,Hotel Carlton
164,Ilulissat,GL,12.22,69.2167,-51.1,Hotel Arctic
166,Tabou,CI,78.66,4.423,-7.3528,hotêl doufoulougou
167,Nanortalik,GL,20.68,60.1432,-45.2371,Hotel Kap Farvel
168,Celestun,MX,67.21,20.8667,-90.4,Hotel Playa Maya Resorts
170,San Patricio,US,55.83,28.017,-97.5169,"Motel 6 Sinton, TX"
171,Klaksvik,FO,32.92,62.2266,-6.589,Airbnb rooms
174,Nalut,LY,40.86,30.3333,10.85,
175,Kavaratti,IN,80.82,10.5669,72.642,Hotels in Lakshadweep Islands
176,Koumac,NC,84.92,-20.5667,164.2833,Le Monitel
177,Kempsey,AU,81.95,-31.0833,152.8333,Park Drive Motel
178,Isangel,VU,78.91,-19.55,169.2667,Tanna Lodge
179,Hasaki,JP,43.29,35.7333,140.8333,Hotel Sunrise Choshi
180,Tongren,CN,37.2,27.7172,109.1853,Fanjing Mountain International Conference Center
181,Tilichiki,RU,10.45,60.4667,166.1,
182,Corner Brook,CA,35.73,48.9667,-57.9484,Glynmill Inn
184,Pacifica,US,63.41,37.6138,-122.4869,"Pacifica Lighthouse, Trademark Collection by Wyndham"
185,Yamada,JP,31.39,39.4667,141.95,Funakoshi Family Travel Village Auto Camping Ground
187,Dolores,AR,66.22,-36.3132,-57.6792,Apart Hotel - Arianos
188,Gedo,ET,50.54,9.0167,37.45,Mida Qanyi
189,Lerwick,GB,39.2,60.1545,-1.1494,The Lerwick Hotel
191,Ostrovnoy,RU,16.61,68.0531,39.5131,
192,Eureka,US,56.17,40.8021,-124.1637,Eureka Inn Trademark By Wyndham
193,Lebu,CL,58.41,-37.6167,-73.65,Hostal Las Lilas
194,East London,ZA,69.33,-33.0153,27.9116,Tu Casa
195,Luocheng,CN,42.58,29.3848,104.0286,Luocheng Hotel
196,Jega,NG,69.06,12.2175,4.3792,ALH. Nasiru Ibrahim
197,Aksu,CN,24.3,41.1231,80.2644,Pudong Holiday Hotel
198,Itarema,BR,78.67,-2.9248,-39.9167,"Sea Lounge! Bar, Club & Restaurant"
200,Saint George,US,53.64,37.1041,-113.5841,Best Western Plus Abbey Inn
202,Mayo,US,24.08,38.8876,-76.5119,The Westin Annapolis
203,Yulara,AU,78.64,-25.2406,130.9889,Desert Gardens Hotel - Ayers Rock Resort
204,Kankon,IN,71.4,15.0167,74.0167,Palolem Beach Resort
205,Pacific Grove,US,63.01,36.6177,-121.9166,Lovers Point Inn
206,Marsh Harbour,BS,60.06,26.5412,-77.0636,Abaco Beach Resort
207,Airai,TL,66.16,-8.9266,125.4092,Foho Tailau
208,Guaruja,BR,76.6,-23.9931,-46.2564,Charme Hotel Guarujá
209,Salalah,OM,68.09,17.0151,54.0924,Al Jabal
210,Kakching,IN,49.78,24.4833,93.9833,Kabi zz
211,Faanui,PF,80.65,-16.4833,-151.75,InterContinental Bora Bora Resort Thalasso Spa
212,Mandalay,MM,50.09,21.9747,96.0836,Hotel Yadanarbon
213,Mackay,AU,88.68,-21.15,149.2,Windmill Motel and Events Centre
216,Port Hedland,AU,89.65,-20.3167,118.5667,"The Esplanade Hotel (Accommodation section closed for refurbishment - Bar, Restaurant & Functions remain open)"
218,Tiznit,MA,57.63,29.5833,-9.5,عين اغبالو
219,Safford,US,61.05,32.834,-109.7076,HWY. EXPRESS INN & SUITES
220,Quito,EC,50.95,-0.2299,-78.5249,Hotel Boutique Plaza Sucre
221,Archidona,ES,50.92,37.0965,-4.3887,Hotel Rural La Paloma
222,Skjervoy,NO,27.84,70.0311,20.9714,Skjervøy Byggeservice AS
223,Oranjestad,AW,78.3,12.524,-70.027,Holiday Inn Resort Aruba-Beach Resort & Casino
226,Wajid,SO,70.81,3.8093,43.2471,xamdihotelresturant114
227,Bereda,ES,45.91,43.2686,-7.5406,Pazo de Verdes
228,Bluff,NZ,59.32,-46.6,168.3333,Bluff Homestead - Guesthouse & Campervan Park
229,Lata,PT,47.05,40.1629,-8.3327,Hotel Quinta das Lágrimas
230,Nagato,JP,46.2,34.3833,131.2,Yumoto Kanko Hotel Saikyo
231,Kodiak,US,35.11,57.79,-152.4072,Best Western Kodiak Inn And Convention Center
232,Vardo,NO,22.71,70.3705,31.1107,Vardø Hotel AS
233,Ixtapa,MX,75.22,20.7,-105.2,Hotel Plaza Providencia
234,Udankudi,IN,75.38,8.4333,78.0167,Manapad Surf Resort
235,Asau,RO,34.39,46.4333,26.4,Casa Mika Ciobanus
237,Marondera,ZW,59.25,-18.1853,31.5519,Zambesi Holidays Centre
238,Dharchula,IN,43.03,29.85,80.5333,Mahara Hotel
239,Sitka,US,37.29,57.0531,-135.33,Westmark Sitka
240,Sao Marcos,BR,62.2,-28.9711,-51.0681,Hotel São Marcos
241,Krasnoarmeysk,RU,32.07,51.0239,45.6969,"Hotel ""Your home-Balzer"""
242,Vega De Alatorre,MX,58.98,20.0333,-96.6333,Hotel Deluxe
243,Damghan,IR,32.18,36.1683,54.348,خوابگاه اساتيد دانشگاه دامغان
244,Biak,ID,81.34,-0.9131,122.8766,Ramayana Beach Hotel
245,Mazara Del Vallo,IT,51.75,37.6641,12.588,Constance Resort Garden - Blu Hotels
246,Khani,GE,24.37,41.9563,42.9566,კურორტი ზეკარი/Resort Zekari
247,Itainopolis,BR,71.35,-7.4469,-41.4783,Pousada Posto Club Frank Aguiar
248,Katsuura,JP,49.19,35.1333,140.3,Katsuura Hotel Mikazuki
249,Preobrazheniye,RU,13.62,42.9019,133.9064,Campsite Orlan
250,Oromocto,CA,21.94,45.8351,-66.4792,Days Inn by Wyndham Oromocto Conference Centre
251,Xiaoshi,CN,10.42,41.2971,124.1209,Junsheng Fengweilou Farmstay
253,Kamaishi,JP,31.15,39.2667,141.8833,Hotel Route Inn Kamaishi
255,Port Lincoln,AU,70.88,-34.7333,135.8667,Port Lincoln Hotel
256,Mae Sai,TH,59.45,20.4335,99.8762,Piyaporn Hill Paradise Hotel
258,Mwinilunga,ZM,62.83,-11.7358,24.4293,Kwakuwahi Lodge
259,Eydhafushi,MV,82.22,5.1033,73.0708,Royal Island Resort & Spa in Maldives
260,Nanchang,CN,37.8,28.6833,115.8833,Gloria Plaza Hotel Nanchang
261,Palora,EC,70.02,-1.7,-77.9333,Rancho grande
262,Salinas,US,63.41,36.6777,-121.6555,Laurel Inn & Conference Center
263,Sakakah,SA,42.37,29.9697,40.2064,Fakhamat Al Orjoana Apartment
264,Ures,MX,74.21,29.4333,-110.4,Hacienda Quinta Napoles
265,Phuket,TH,86.09,8.0,98.25,Trisara
266,Antalaha,MG,71.71,-14.9003,50.2788,Hotel Vitasoa
267,Broken Hill,AU,84.51,-31.95,141.4333,Royal Exchange Hotel
268,Hovorany,CZ,46.11,48.9549,16.9935,Hotel Albor
269,Mount Pleasant,US,36.99,32.7941,-79.8626,Best Western Patriots Point
270,Taitung,TW,70.07,22.7583,121.1444,Taitung Bali Suites Hotel
272,Rio Grande,BR,70.95,-32.035,-52.0986,Hotel Atlântico Rio Grande
273,Andenes,NO,28.38,69.3143,16.1194,Hotell Marena
275,Sao Joao Da Barra,BR,75.88,-21.6403,-41.0511,Pousada João Vitor e o Mar
276,Prince Rupert,CA,41.09,54.3161,-130.3201,Crest Hotel
277,Salmas,IR,13.19,38.1973,44.7653,Ata Hotel
278,Sao Filipe,CV,70.63,14.8961,-24.4956,Hotel Xaguate
279,Chicama,PE,66.74,-7.8447,-79.1469,Balihai Bungalows
280,Shiyan,CN,35.06,32.6475,110.7781,Laomofang Quanshuizhuang
283,Farmington,US,39.2,36.7281,-108.2187,Courtyard by Marriott Farmington
284,Banagher,IE,36.05,53.1886,-7.9867,Keeraun Hill
285,Weyburn,CA,12.18,49.6668,-103.8511,Perfect Inns & Suites
286,Pleasanton,US,62.35,37.6624,-121.8747,Four Points by Sheraton Pleasanton
287,Tondano,ID,78.89,1.3038,124.9112,Gardenia Country Inn
289,Qaqortoq,GL,12.7,60.7167,-46.0333,Siniffik Inn
290,Lahaina,US,84.2,20.8783,-156.6825,Lahaina Shores Beach Resort
291,Laguna,US,62.44,38.421,-121.4238,"Holiday Inn Express & Suites Elk Grove West I-5, an IHG Hotel"
292,Aden,YE,75.94,12.7794,45.0367,Sama Emirate Hotel
293,Huamachuco,PE,49.68,-7.8,-78.0667,Hotel Mama Wasi
294,Wuwei,CN,14.7,37.9281,102.6414,Thank Inn Chain Hotel gansu wuwei liangzhou district xiguan middle road
296,San Quintin,MX,61.97,30.4833,-115.95,Don Eddie's Landing
298,Mushie,CD,73.35,-3.0167,16.9,
299,Coquimbo,CL,64.13,-29.9533,-71.3436,Hostel Del Puerto
300,Indianola,US,34.05,41.3581,-93.5574,Quality Inn Indianola
302,Mahebourg,MU,79.09,-20.4081,57.7,Shandrani Beachcomber Resort & Spa
303,Fairlie,GB,41.0,55.756,-4.8556,Seamill Hydro Hotel
304,Iracoubo,GF,75.83,5.4802,-53.2011,Le Gîte d’Iracoubo
305,Ler,SS,69.84,8.3018,30.1418,
306,Kirakira,SB,84.85,-10.4544,161.9205,SanBiz Lodge
307,Rocha,UY,64.04,-34.4833,-54.3333,Hotel Arrarte
309,Alofi,NU,85.89,-19.0595,-169.9187,Scenic Matavai Resort Niue
310,Sala,MA,62.64,34.0389,-6.8166,Hôtel Mercure Rabat Sheherazade
311,Saint-Joseph,RE,75.56,-21.3667,55.6167,La Bohème
312,Atherton,GB,44.35,53.5237,-2.4935,The Lion Inn
313,Kavieng,PG,83.37,-2.5744,150.7967,Nusa Island Retreat
314,Puerto Leguizamo,CO,77.14,-0.1934,-74.7819,la casona de juancho
315,Sobolevo,RU,23.05,54.4299,31.8996,
316,Axim,GH,78.85,4.8699,-2.2405,Axim Beach Resort And Spa
317,Gamba,GA,76.69,-2.65,10.0,Laguna guest house
319,Pathein,MM,65.44,16.7833,94.7333,New Pammawaddy Hotel
320,Camacha,PT,60.22,33.0833,-16.3333,Hotel Porto Santo & Spa
321,Berlevag,NO,21.11,70.8578,29.0864,Kvitbrakka
322,Huron,US,10.69,41.1501,-82.5499,Freedom Valley Campgrounds
323,Jalu,LY,53.56,29.0331,21.5482,صاحبة الفخامة
325,Inyonga,TZ,63.28,-6.7167,32.0667,Eden Rock Lodge
326,Karratha,AU,85.82,-20.7377,116.8463,ibis Styles Karratha
327,Masterton,NZ,74.93,-40.9597,175.6575,Copthorne Hotel & Resort Solway Park Wairarapa
328,Odweyne,SO,60.08,9.4092,45.064,Eng Hiirey House
329,Narsaq,GL,12.42,60.9167,-46.05,Sleep In Narsaq
331,Pascagoula,US,39.04,30.3658,-88.5561,"Holiday Inn Express Pascagoula-Moss Point, an IHG Hotel"
332,Iranshahr,IR,58.78,27.2025,60.6848,نیک سرشت
333,Svetlogorsk,BY,26.47,52.6333,29.7333,Hotel Svetlogorsk JBIK
334,Myitkyina,MM,52.07,25.3833,97.4,Shwe Phyu Hotel
335,Abu Zabad,SD,59.2,12.35,29.25,حامد محمد نور
336,Sile,TR,36.57,41.1754,29.6133,Phellos Suites
337,Sorong,ID,83.25,-0.8833,131.25,Waigo Splash Hotel
338,Vangaindrano,MG,73.04,-23.35,47.6,Hotel Fanilo
339,Marsa Matruh,EG,52.83,31.3525,27.2453,بورتو مطروح اكوا بارك
341,Codrington,AU,71.76,-38.2667,141.9667,Codrington Gardens Bed And Breakfast
343,Santiago Del Estero,AR,76.19,-27.7951,-64.2615,Apartamentos Castelli 90
344,Lucapa,AO,65.93,-8.4192,20.7447,Residência Ulisses Dos Santos
345,Taltal,CL,66.36,-25.4,-70.4833,Residencial Karime
346,Acajutla,SV,78.8,13.5928,-89.8275,Royal Decameron Salinitas
348,Pisco,PE,69.85,-13.7,-76.2167,Hotel San Isidro Oficial
349,Bandar-E Lengeh,IR,67.73,26.5579,54.8807,kong Hotel
351,Florence,IT,48.54,43.7667,11.25,Italiana Hotels Florence
352,Almenara,BR,71.65,-16.1836,-40.6944,Pousada Estância
353,Pio Xii,BR,71.78,-3.8325,-45.1525,Ccb Imperial Hotel
354,Sechura,PE,74.62,-5.5569,-80.8222,Hospedaje Costa Bella
355,Creutzwald,FR,46.99,49.2,6.6833,"Der Linslerhof – Hotel, Restaurant, Events & Natur"
356,Filadelfia,US,19.54,39.9523,-75.1638,"The Ritz-Carlton, Philadelphia"
358,Da Lat,VN,65.3,11.9465,108.4419,Khách Sạn Dragon King I
359,Staraya Russa,RU,23.9,57.9944,31.3608,Hotel Polist
360,Necochea,AR,75.04,-38.5473,-58.7368,Hotel Tres Arroyos
361,Cusuna,HN,73.26,15.85,-85.2333,
362,Bima,ID,82.8,-8.4667,118.7167,Lambitu Hotel
363,Cabo San Lucas,MX,75.51,22.8909,-109.9124,Hotel Tesoro Los Cabos
364,Virginia Beach,US,28.45,36.8529,-75.978,Hilton Virginia Beach Oceanfront
365,Grafton,US,12.87,42.207,-71.6856,Days Inn by Wyndham Shrewsbury Worcester
367,Kruisfontein,ZA,58.89,-34.0033,24.7314,Oyster Bay House Rental
369,Kushima,JP,48.24,31.4583,131.2333,Shibushiwan Daikoku Resort Hotel
372,Olinda,BR,78.53,-8.0089,-34.8553,Hotel Albergue de Olinda
373,Teguise,ES,62.82,29.0605,-13.564,Hotel Beatriz Costa & Spa
374,Chilca,PE,74.61,-12.5211,-76.7372,Costa del Mar
375,Kainantu,PG,75.4,-6.2887,145.8655,Sylvester buku
376,Cayenne,GF,79.09,4.9333,-52.3333,Hôtel Le Dronmi
377,Burnie,AU,70.95,-41.0667,145.9167,Beachfront Voyager Motor Inn
378,Lawrenceburg,US,23.02,38.0373,-84.8966,Best Western Lawrenceburg Inn
379,Makakilo City,US,78.69,21.3469,-158.0858,Marriott's Ko Olina Beach Club
380,Graaff-Reinet,ZA,58.93,-32.2522,24.5308,Rietjiesbos Self Catering
381,Eirunepe,BR,76.91,-6.6603,-69.8736,Atrás de você
382,Alexandria,EG,51.8,31.2156,29.9553,Alexander the Great Hotel-Alexotel Apartments
383,Nauta,PE,76.05,-4.5061,-73.5757,Amazon Exploring Expedition - Eretzen Tá Lodge
384,Barvinkove,UA,26.06,48.9097,37.0205,"Khostel ""Fortetsya"""
385,Ha Giang,VN,57.27,22.8333,104.9833,Truong Xuan Resort
386,Wilmington,US,30.92,34.2257,-77.9447,"Hotel Ballast Wilmington, Tapestry Collection by Hilton"
387,Kalmunai,LK,75.79,7.4167,81.8167,VS Villa
389,San Buenaventura,MX,57.47,27.0833,-101.5333,Hotel Gran Plaza
390,Griffith,US,22.12,41.5284,-87.4237,"Motel 6 Hammond, IN - Chicago Area"
391,Balabac,PH,81.9,7.9868,117.0645,Sing and Swing Lodge
396,Primorsk,UA,29.77,46.7348,36.3443,Relax
397,Rapid Valley,US,45.14,44.0625,-103.1463,Fairfield Inn & Suites by Marriott Rapid City
398,Padang,ID,75.25,-0.9492,100.3543,Mercure Padang
399,Ayagoz,KZ,13.89,47.9714,80.4392,Gostinitsa Nur
400,Yaan,NG,77.38,7.3833,8.5667,Father's garden
401,Sabang,ID,81.9,5.8933,95.3214,Gapang Beach Resort
402,Parbhani,IN,58.1,19.2667,76.7833,Hotel Radhika Place City Palace
403,Port Shepstone,ZA,72.01,-30.7414,30.455,My Den Beachfront Bed and Breakfast | Self-Catering
404,Straumen,NO,37.4,63.8709,11.2999,Jægtvolden Fjordhotell
405,Moradabad,IN,46.62,28.8333,78.7833,SPOT ON 37757 Hotel Paradise
406,Ayni,TJ,24.21,39.3941,68.5377,Меҳмонхона СУҒД
408,Mtwara,TZ,75.43,-10.2667,40.1833,TIL Hotels Mtwara
410,Apollonia,GR,53.26,36.9716,24.7231,Hotel Boulis Ξενοδοχείο
412,Gizo,SB,83.95,-8.103,156.8419,Imagination Island
413,Moranbah,AU,83.77,-22.0016,148.0466,Direct Hotels - Monterey Moranbah
415,Kisangani,CD,67.6,0.5167,25.2,Grand Ramela Hotel
416,Alta Floresta,BR,69.51,-9.8756,-56.0861,Floresta Amazonica Hotel
418,Correntina,BR,68.11,-13.3433,-44.6367,Hotel Pousada dos Sonhos
419,Devgarh,IN,53.73,25.5333,73.9,Deogarh Mahal
420,Valparaiso,CL,67.48,-33.0393,-71.6273,Hotel Ultramar
421,Sibolga,ID,77.02,1.7427,98.7792,Hotel Syariah CN Darussalam
422,Progreso,MX,67.1,21.2833,-89.6667,Playa Linda Hotel
423,Grand Gaube,MU,79.2,-20.0064,57.6608,Veranda Paul et Virginie Hotel & Spa
424,Murindo,CO,73.69,6.9848,-76.7544,Hotel Mi Gualú
425,Northam,GB,43.39,51.0333,-4.2167,Durrant House Hotel
426,Garowe,SO,63.95,8.4054,48.4845,Curubo Hotel
427,Yaroslavskaya,RU,26.89,44.6106,40.4642,"""Zolotaya Rybka"", Termal'nyy Istochnik"
428,Hof,DE,41.95,50.3167,11.9167,Hotel Burghof
429,Bubaque,GW,78.62,11.2833,-15.8333,0
430,Banjarmasin,ID,82.54,-3.3244,114.591,Swiss-Belhotel Borneo Banjarmasin
431,San Juan Bautista,PE,65.03,-14.0108,-75.7358,Hotel Las Dunas
432,Beira,MZ,77.09,-19.8436,34.8389,Beira Terrace Hotel
433,Alyangula,AU,83.28,-13.8483,136.4192,Groote Eylandt Lodge
434,Brandfort,ZA,64.56,-28.7001,26.4597,SUMFRA GUESTHOUSE
435,Avrille,FR,46.94,47.5,-0.5833,Hôtel le Continental
436,San Andres,CO,80.62,12.5847,-81.7006,Hotel Arena Blanca
437,Narasannapeta,IN,60.51,18.4167,84.05,Alikam Meeseva
438,Los Llanos De Aridane,ES,58.75,28.6585,-17.9182,Valle Aridane
439,Constantine,DZ,33.21,36.365,6.6147,Grand Hotel Cirta
440,Kawit,PH,84.97,14.45,120.9,Mount Sea Resort
442,Obregon,NI,84.29,11.9566,-85.9636,Hostal Casa Aryen
443,Vila Velha,BR,80.55,-20.3297,-40.2925,Quality Suites Vila Velha
444,Atar,MR,72.32,20.5169,-13.0499,Oumou Elghoura
445,Maceio,BR,78.24,-9.6658,-35.7353,Poutur Pousada
446,Abeche,TD,60.93,13.8292,20.8324,Assaleh Hamdan Haroune
448,Kieta,PG,80.19,-6.2167,155.6333,Uruna Bay Retreat
449,Adrar,MR,73.89,20.5022,-10.0711,
451,Caranavi,BO,64.27,-15.8167,-67.55,Hotel LANDIVAR
452,Jiblah,YE,55.96,13.9216,44.1467,Tiger Tower Hotel
453,La Romana,DO,78.53,18.4273,-68.9728,Casa de Campo Resort and Villas
454,Miri,MY,75.34,4.4148,114.0089,"Mega Hotel, Miri"
455,Honiara,SB,85.89,-9.4333,159.95,Heritage Park Hotel
456,Yeppoon,AU,85.78,-23.1333,150.7333,Villa Mar Colina
457,Bay Roberts,CA,40.51,47.5999,-53.2648,Stonewall Inn
458,Esil,KZ,12.58,51.9556,66.4042,Egorkino Hotel
459,Teluk Nibung,ID,77.77,3.001,99.8164,Hotel Assyifa
460,Coolum Beach,AU,84.11,-26.5333,153.1,Coolum Beach Resort
462,San Policarpo,PH,80.04,12.1791,125.5072,Kirum-Kirum Resort and Hotel
463,Naifaru,MV,82.29,5.4444,73.3657,Atmosphere Kanifushi Maldives
464,Qasigiannguit,GL,12.45,68.8193,-51.1922,Hotel Diskobay
465,Marshall,US,31.41,34.3834,-86.3333,Hampton Inn Guntersville
466,Semirom,IR,17.92,31.4167,51.5667,Motel Dena
467,Blagoyevo,RU,14.27,63.3667,47.9167,
469,Portoferraio,IT,54.57,42.8115,10.3146,Hotel Antares
470,Hurghada,EG,55.13,27.2574,33.8129,Sea Star Beau Rivage Hotel
471,Balykshi,KZ,23.0,47.0667,51.8667,River Palace Hotel
472,Mae Chan,TH,59.79,20.1467,99.8526,มณีเทวา รีสอร์ทแอนด์สปา
474,Mascote,BR,74.17,-15.5631,-39.3025,
475,Porbandar,IN,64.15,21.6422,69.6093,Lords Inn Porbandar
476,Ibate,BR,66.94,-21.9547,-47.9967,Hotel Veneza
477,Bull Savanna,JM,72.52,17.8868,-77.5902,Big Red's
478,Gazanjyk,TM,36.55,39.2446,55.5154,Railway motel
479,Murud,IN,67.91,18.3258,72.965,On Point Plaza
480,Bonfim,BR,82.78,3.0833,-59.95,
481,Sao Jose Da Coroa Grande,BR,76.15,-8.8978,-35.1478,Grand Oca Maragogi
483,Longonjo,AO,62.46,-12.9067,15.2533,
484,Camana,PE,70.61,-16.6228,-72.7111,Hostal Morales
486,Half Moon Bay,US,63.61,37.4636,-122.4286,"The Ritz-Carlton, Half Moon Bay"
487,Manga,BF,72.23,11.6636,-1.0731,Auberge du 11 décembre de la cité CNSS à Manga
488,Tres Arroyos,AR,75.4,-38.3739,-60.2798,Habitacion Triple con baño y entrada privada
489,Ahuimanu,US,79.86,21.4447,-157.8378,Paradise Bay Resort
490,Paralimni,CY,52.43,35.0375,33.9833,Nissi Beach Resort
491,Bathsheba,BB,76.57,13.2167,-59.5167,Atlantis Hotel
492,Colares,PT,57.88,38.7992,-9.4469,Penha Longa Resort
493,Bakel,SN,81.37,14.905,-12.4568,Ablaye Diallo Bakel
494,Payo,ID,75.87,-3.7508,103.6372,Hotel Grand Zuri Lahat by ZHM
495,Dos Hermanas,ES,54.88,37.2829,-5.9209,Leflet Valme
496,Nizwa,OM,64.18,22.9333,57.5333,Golden Tulip Nizwa
497,Vytegra,RU,10.17,61.0064,36.4481,Wardenclyffe Volgo&Balt
498,Saint Anthony,US,24.15,45.0205,-93.218,Days Hotel by Wyndham University Ave SE
499,Dawson Creek,CA,38.84,55.7666,-120.2362,Peace Villa Motel
500,Puerto Narino,CO,78.75,-3.7703,-70.3831,Eware Refugio Amazonico
501,Lorengau,PG,84.6,-2.0226,147.2712,Lorengau Harbourside Hotel
502,Yangambi,CD,67.87,0.8102,24.4336,Club Yangambi
503,Ahipara,NZ,76.53,-35.1667,173.1667,Ahipara Holiday Park
504,Ciechanow,PL,43.86,52.8814,20.62,Hotel ATENA
505,Dingle,PH,81.54,10.9995,122.6711,OYO 236 Hotel Edmundo
506,Muncar,ID,79.74,-8.4333,114.3333,Zaky Homestay
507,Kiama,AU,87.01,-34.6833,150.8667,The Sebel Kiama Harbourside
508,Cururupu,BR,72.16,-1.8283,-44.8683,POUSADA TRAVÉS'CIA
511,Llata,PE,55.31,-9.4167,-76.7833,Hospedaje Familia Collazos Espinoza
512,Oktyabrskiy,RU,11.52,54.4815,53.471,Уязы-Тау гостиница
513,Aswan,EG,48.87,24.0934,32.907,Nuba Nile
515,Ziarat,PK,36.12,30.3823,67.7282,Pakiza Guest House
516,Laiwu,CN,32.13,36.1928,117.6569,Hanting Hotel Laiwu Yinzuo Mall
517,Parlakimidi,IN,57.51,18.7667,84.0833,APEPDCL
518,Methoni,GR,51.66,36.8197,21.7049,Methoni Beach Hotel
519,Loikaw,MM,52.52,19.6742,97.2094,Myat Nan Taw Hotel
520,Prainha,BR,71.96,-1.8,-53.48,Casa Rocha
522,Guerrero Negro,MX,64.24,27.9769,-114.0611,The Halfway Inn
523,Muisne,EC,75.74,0.6,-80.0333,Quinta Samay
524,Pionki,PL,42.28,51.476,21.4499,Imperium
525,Arrecife,ES,66.18,28.963,-13.5477,Hotel Lancelot
526,Ucluelet,CA,43.11,48.9329,-125.5528,Black Rock Oceanfront Resort
527,Wad Rawah,SD,63.63,15.1603,33.1397,ود الترابي
529,Mersing,MY,75.11,2.4312,103.8405,Timotel Hotel
530,Tomari,RU,13.46,47.7658,142.0683,Vostochnaya
533,Coxim,BR,72.48,-18.5067,-54.76,Six Ranch
534,Havelock,US,31.95,34.8791,-76.9013,Sherwood Motel
536,Souris,CA,12.06,49.6172,-100.2612,The Souris Hotel
537,Port Hawkesbury,CA,49.12,45.6169,-61.3485,Hearthstone Inn Port Hawkesbury
539,Vanimo,PG,80.26,-2.6741,141.3028,Vahmoneh Lodge Vanimo
542,Wawa,NG,73.42,9.9022,4.4192,NAPTIN Guest House New-Bussa
543,Maragogi,BR,75.85,-9.0122,-35.2225,Salinas do Maragogi All Inclusive Resort
544,Shablykino,RU,18.54,52.8566,35.1964,"Okhotnich'ye Khozyaystvo ""Zaimka"""
545,Margate,GB,44.31,51.3813,1.3862,Premier Inn Margate hotel
546,Outlook,CA,23.56,51.5001,-107.0513,Red Wheel Motel
547,Meulaboh,ID,76.55,4.1363,96.1285,Kost Pria
548,Namatanai,PG,83.44,-3.6667,152.4333,Seagulls Inn Namatani
549,Tocopilla,CL,67.05,-22.092,-70.1979,Hotel Galvarino
550,Bilma,NE,56.32,18.6853,12.9164,Expeditions Ténére voyages
551,Herat,AF,39.18,34.5,62.0,
552,Shahrud,IR,31.17,36.4182,54.9763,Royal Hotel
553,Dwarka,IN,66.96,22.2394,68.9678,Hotel Narayan Avezika Comfort
554,Beloha,MG,71.74,-25.1667,45.05,
555,Rosetta,EG,50.41,31.4044,30.4164,Green Valley
556,Coruripe,BR,77.14,-10.1256,-36.1756,Hotel Fazenda Maresia
557,Storforshei,NO,21.97,66.4043,14.5233,Anne Berit Sætermo
559,Tessalit,ML,66.04,20.1986,1.0114,
561,Labuhan,ID,81.64,-6.8844,112.2051,DoubleFAG
562,Zalakomar,HU,35.74,46.538,17.1809,Hotel Karos Spa
563,Barsi,IN,62.78,18.2333,75.7,B.K.T. COMMUNICATION AND FASHION
564,Casper,US,36.19,42.8666,-106.3131,Ramkota Hotel
565,Sinnamary,GF,75.87,5.3833,-52.95,ALETHEIA Appartement Sinnamary
567,Muyezerskiy,RU,20.62,63.9333,31.65,"Gostinitsa Ooo ""Lzkh ""Ledmozerskoye"""
568,Marystown,CA,42.85,47.1666,-55.1483,Marystown Hotel & Convention Centre
569,Gainesville,US,38.08,29.6516,-82.3248,"Holiday Inn Gainesville-University Ctr, an IHG Hotel"
570,Lishan,CN,35.08,31.8576,113.2951,Hongdu Hotel
571,Visnes,NO,42.85,59.3556,5.2242,Clarion Collection Hotel Amanda
572,Parana,AR,70.47,-31.732,-60.5238,Howard Johnson by Wyndham Plaza Hotel Mayorazgo
573,Kearney,US,45.25,40.6995,-99.0815,"Holiday Inn Kearney, an IHG Hotel"
574,Yumen,CN,11.37,40.2833,97.2,Jinhuanghou Restaurant
575,Bell Ville,AR,65.66,-32.6259,-62.6887,Hotel Central
576,Straseni,MD,28.44,47.1414,28.6103,Fenix Club
577,Alice Springs,AU,76.55,-23.7,133.8833,Desert Palms Alice Springs
578,Helong,CN,16.07,42.5397,128.9972,Helong Hotel
580,Richards Bay,ZA,69.22,-28.783,32.0377,Imvubu Lodge
581,Iquitos,PE,75.24,-3.7481,-73.2472,Casa Morey Hotel & Restaurant
582,Juneau,US,36.21,58.3019,-134.4197,"Baranof Downtown, Bw Signature Collection"
583,Samarinda,ID,80.91,-0.5,117.15,ASTON Samarinda Hotel & Convention Center
584,Ballina,AU,82.58,-28.8667,153.5667,Ramada Hotel & Suites by Wyndham Ballina Byron
585,Gat,IL,49.41,31.61,34.7642,OlusHome
586,Khasan,RU,20.66,42.4308,130.6434,
587,Alugan,PH,80.01,12.2188,125.4808,JM Lodge
588,Listowel,IE,37.11,52.4464,-9.485,Listowel Arms Hotel
589,Ati,TD,61.18,13.2154,18.3353,
590,Fonte Boa,BR,73.9,-2.4959,-66.2662,
591,Ouadda,CF,60.8,8.0777,22.4007,
592,Touros,BR,76.1,-5.1989,-35.4608,Siri Paraíso Hotel
593,Boende,CD,71.31,-0.2167,20.8667,
594,Sicamous,CA,32.18,50.8331,-118.9856,Best Western Sicamous Inn
595,Yaguajay,CU,63.39,22.3272,-79.2378,Hostal La Terraza
596,Luanda,AO,77.76,-8.8368,13.2343,Hotel Fórum
597,Ugoofaaru,MV,82.18,5.6667,73.0,Ungoofaaru Inn
598,Rondonopolis,BR,72.84,-16.4708,-54.6356,Serras Hotel
599,Nara,JP,45.97,34.6851,135.8049,Guesthouse Nara Komachi
600,Nouakchott,MR,66.13,18.0858,-15.9785,HOTEL IMAN
601,Karaton,ID,78.96,-6.3424,106.1045,Parkir Mobil Wisata CAS Water Park
602,Port Macquarie,AU,81.9,-31.4333,152.9167,Rydges Port Macquarie
603,Miraflores,MX,65.05,19.2167,-98.8083,Bosque de los Arboles de Navidad
604,Raga,SS,62.71,8.4596,25.678,
605,Whitehorse,CA,19.09,60.7161,-135.0538,The Sternwheeler Hotel & Conference Centre
606,Murray Bridge,AU,90.32,-35.1167,139.2667,Murray Bridge Motor Inn
608,Tautira,PF,82.0,-17.7333,-149.15,Pension Oaoa
610,Talcahuano,CL,62.28,-36.7167,-73.1167,ibis Concepción
611,Tigre,AR,78.24,-34.426,-58.5796,Puerto Delta Apartamentos
612,Bintulu,MY,81.01,3.1667,113.0333,900 Boutique INN
613,Benguela,AO,76.78,-12.5763,13.4055,Hotel Praia Morena
614,Iquique,CL,69.84,-20.2208,-70.1431,Backpacker`s Hostel Iquique
615,Corralillo,CU,63.41,22.9819,-80.5856,Hostal De Pedri
616,Matamoros,MX,62.71,25.5333,-103.25,Las Flores Hotel y Cabañas
617,Panaba,MX,63.54,21.2833,-88.2667,Hotel California
618,Palana,RU,21.56,59.1167,159.9667,Chikago
619,Lagoa,PT,58.14,39.05,-27.9833,Casa da Beira Mar
620,Karpathos,GR,57.16,35.507,27.2132,Alex
621,Nhamunda,BR,72.88,-2.1861,-56.7131,Pousada Da Praia
622,Sovetskaya,RU,25.2,44.7769,41.1722,
623,Dongsheng,CN,15.4,39.8161,109.9776,Crowne Plaza Ordos
624,Kwekwe,ZW,66.72,-18.9281,29.8149,"Golden Mile Hotel, Kwekwe"
625,Arecibo,PR,77.11,18.4724,-66.7157,Hotel Parador El Buen Café
626,Pont-A-Mousson,FR,46.71,48.9079,6.0589,Hôtel Restaurant Campanile Pont-à-Mousson
627,Garden City,US,17.85,42.3256,-83.331,"The Dearborn Inn, A Marriott Hotel"
628,Tuy Hoa,VN,75.16,13.0833,109.3,CenDeluxe Hotel Tuy Hoa
629,Sitio Novo Do Tocantins,BR,70.79,-5.5183,-47.4611,Imperial Hotel
630,Maun,BW,67.08,-19.9833,23.4167,Enviro Villa
631,Tacoronte,ES,60.21,28.4769,-16.4102,Hotel Las Cañadas
632,Banda Aceh,ID,80.15,5.5577,95.3222,Sulthan Hotel International
633,Taoudenni,ML,72.5,22.6783,-3.9836,
634,Matay,EG,46.76,28.419,30.7792,Nag Aespen
635,Zhanjiang,CN,51.6,21.2815,110.3427,Holiday Inn Crowne Plaza
636,Vodnyy,RU,14.47,63.5046,53.4095,Каменка
637,Mehamn,NO,17.04,71.0357,27.8492,Mehamn Arctic Hotel AS
638,Wielun,PL,38.21,51.221,18.5696,Zajazd Boryna
639,Saint Austell,GB,43.03,50.3383,-4.7658,The Cornwall Hotel & Spa
640,Kuybysheve,UA,26.04,47.358,36.6491,Отель Колизей
641,Magadan,RU,17.73,59.5667,150.8,Magadan hotel
642,Zheleznodorozhnyy,RU,23.52,55.7503,38.0042,Novokosino Otel'
643,Mosoaia,RO,25.02,44.8167,24.7667,Hotel Magic - City Center
644,Sorland,NO,24.87,67.667,12.6934,Sjybrygga fiskecamp
645,Birao,CF,62.38,10.2849,22.7882,
646,Palembang,ID,78.89,-2.9167,104.7458,ASTON Palembang Hotel & Conference Center
647,Princeton,US,54.0,25.5384,-80.4089,La Quinta Inn & Suites by Wyndham Miami Cutler Bay
648,Poladpur,IN,65.86,17.9802,73.466,SPOT ON 68232 Captian Vikram Rao More Hall
649,Sri Aman,MY,80.65,1.2376,111.4621,Seri Simanggang Hotel
650,Vilhena,BR,71.82,-12.7406,-60.1458,Hotel Mirage
651,Penzance,GB,46.76,50.1186,-5.5371,Artist Residence Penzance
652,Nong Kung Si,TH,79.57,16.65,103.3,บ้าน พี่บิ๊ก
653,Bambanglipuro,ID,80.62,-7.95,110.2833,Puri Brata
654,Lamu,KE,77.22,-2.2717,40.902,Lamu House
655,Honningsvag,NO,29.97,70.9821,25.9704,Nordkapp Vandrerhjem
656,Ambilobe,MG,74.26,-13.2,49.05,Hôtel & Restaurant DIANA Ambilobe
657,Kisanga,TZ,72.39,-7.4362,37.7034,Sable Mountain Lodge | A Tent with a View Safaris
